,City,Cloudiness,Country,Date,Humidity,Lat,Lng,Max Temp,Wind Speed
0,dolgorukovo,88.0,RU,1551438605.0,94.0,52.32,38.35,273.717,3.83
1,mitsamiouli,20.0,KM,1551434400.0,70.0,-11.38,43.28,305.15,4.6
3,nikolskoye,75.0,RU,1551438481.0,73.0,59.7,30.79,268.71,5.0
4,castro,90.0,CL,1551434400.0,93.0,-42.48,-73.76,284.15,2.1
5,jamestown,0.0,AU,1551438571.0,30.0,-33.21,138.6,299.16700000000003,4.13
6,east london,75.0,ZA,1551434400.0,65.0,-33.02,27.91,298.15,5.7
7,ushuaia,75.0,AR,1551434400.0,87.0,-54.81,-68.31,280.15,2.03
8,zelenokumsk,88.0,RU,1551436200.0,80.0,44.4,43.88,281.15,2.0
9,sorland,75.0,NO,1551437400.0,86.0,67.67,12.69,272.15,10.8
12,bambous virieux,75.0,MU,1551438240.0,79.0,-20.34,57.76,303.15,5.7
13,saldanha,0.0,PT,1551438608.0,51.0,41.42,-6.55,288.66700000000003,1.83
14,rikitea,80.0,PF,1551438462.0,100.0,-23.12,-134.97,296.942,3.78
15,leningradskiy,20.0,RU,1551438608.0,87.0,69.38,178.42,264.91700000000003,7.83
16,georgetown,40.0,GY,1551434400.0,88.0,6.8,-58.16,298.15,4.1
17,cherskiy,80.0,RU,1551438609.0,65.0,68.75,161.3,250.36700000000002,4.38
18,albany,90.0,US,1551438254.0,66.0,42.65,-73.75,266.48,1.5
19,abha,20.0,SA,1551434400.0,53.0,18.22,42.5,295.15,7.7
20,coari,80.0,BR,1551438609.0,89.0,-4.09,-63.14,298.317,2.98
21,vestmannaeyjar,90.0,IS,1551434400.0,100.0,63.44,-20.27,280.15,12.9
22,bluff,92.0,AU,1551438458.0,55.0,-23.58,149.07,298.317,5.38
23,sitka,0.0,US,1551438610.0,80.0,37.17,-99.65,264.617,1.63
24,yerbogachen,20.0,RU,1551438610.0,76.0,61.28,108.01,261.342,1.58
25,kapaa,75.0,US,1551438203.0,59.0,22.08,-159.32,293.15,5.1
26,fortuna,0.0,ES,1551438450.0,52.0,38.18,-1.13,293.71,1.5
27,ipixuna,40.0,BR,1551434400.0,94.0,-1.76,-48.8,297.15,1.0
28,mackenzie,90.0,CA,1551434400.0,47.0,55.34,-123.09,262.15,2.1
29,sayyan,0.0,YE,1551438611.0,20.0,15.17,44.32,299.467,4.03
31,klaeng,56.0,TH,1551438612.0,95.0,12.78,101.65,301.617,4.58
32,cape town,20.0,ZA,1551438454.0,53.0,-33.93,18.42,299.82,3.6
33,strangnas,20.0,SE,1551438248.0,55.0,59.38,17.03,274.26,1.53
34,viransehir,0.0,TR,1551438612.0,82.0,37.24,39.76,282.617,4.93
35,itoman,20.0,JP,1551438318.0,68.0,26.12,127.67,294.15,4.1
36,kodiak,1.0,US,1551438424.0,41.0,39.95,-94.76,266.48,2.6
37,hornepayne,32.0,CA,1551438613.0,80.0,49.22,-84.78,257.217,1.78
38,yellowknife,5.0,CA,1551438396.0,66.0,62.45,-114.38,239.82,3.1
40,grand baie,75.0,MU,1551438539.0,79.0,-20.02,57.58,303.15,5.7
41,grindavik,90.0,IS,1551438554.0,100.0,63.84,-22.43,279.82,1.5
42,vao,32.0,EE,1551438614.0,68.0,59.1,26.19,268.117,4.13
43,bouna,24.0,CI,1551438614.0,23.0,9.27,-3.0,303.942,3.48
44,port alfred,0.0,ZA,1551438351.0,73.0,-33.59,26.89,300.93,1.79
45,lazaro cardenas,0.0,MX,1551438558.0,46.0,28.39,-105.62,285.37,1.34
46,sorong,76.0,ID,1551438615.0,99.0,-0.86,131.25,300.942,6.73
49,los llanos de aridane,90.0,ES,1551438009.0,72.0,28.66,-17.92,291.15,4.6
50,busselton,0.0,AU,1551438309.0,26.0,-33.64,115.35,290.93,6.73
51,bredasdorp,75.0,ZA,1551438124.0,53.0,-34.53,20.04,298.15,1.5
52,mayumba,76.0,GA,1551438617.0,96.0,-3.44,10.65,300.192,2.98
53,severo-kurilsk,0.0,RU,1551438617.0,100.0,50.68,156.12,265.092,2.28
54,mataura,0.0,NZ,1551438013.0,80.0,-46.19,168.86,284.82,1.79
55,ribeira grande,40.0,PT,1551436200.0,87.0,38.52,-28.7,289.15,5.7
56,matara,40.0,PE,1551434400.0,81.0,-13.74,-72.9,279.15,2.1
57,ostrovnoy,44.0,RU,1551438618.0,85.0,68.05,39.51,264.817,6.08
58,obidos,20.0,PT,1551438606.0,72.0,39.36,-9.16,289.82,5.7
60,dakar,0.0,SN,1551436200.0,11.0,14.69,-17.45,296.15,9.8
61,qaanaaq,0.0,GL,1551438465.0,75.0,77.48,-69.36,245.442,2.73
62,tiksi,56.0,RU,1551438619.0,60.0,71.64,128.87,251.317,1.43
63,nokaneng,32.0,BW,1551438619.0,50.0,-19.66,22.19,307.092,3.38
64,portland,20.0,US,1551438440.0,80.0,45.52,-122.67,276.15,4.6
65,mahibadhoo,0.0,MV,1551438620.0,100.0,3.78,72.97,301.242,4.33
66,dunedin,0.0,NZ,1551438276.0,68.0,-45.87,170.5,286.48,8.05
67,nogales,1.0,US,1551438601.0,75.0,31.34,-110.94,283.15,2.1
69,laredo,90.0,US,1551438304.0,93.0,27.51,-99.51,286.15,3.1
70,lamar,1.0,US,1551438068.0,92.0,38.09,-102.62,267.15,3.6
71,punta arenas,90.0,CL,1551438318.0,93.0,-53.16,-70.91,282.15,2.1
72,nisia floresta,75.0,BR,1551434400.0,94.0,-6.09,-35.21,299.15,2.1
73,hithadhoo,20.0,MV,1551438463.0,100.0,-0.6,73.08,301.742,6.63
75,neiafu,80.0,TO,1551438622.0,99.0,-18.65,-173.98,300.66700000000003,7.68
77,pangnirtung,0.0,CA,1551438622.0,24.0,66.15,-65.72,246.017,2.13
78,upernavik,0.0,GL,1551438622.0,100.0,72.79,-56.15,253.767,1.68
79,faanui,64.0,PF,1551438478.0,100.0,-16.48,-151.75,301.467,4.58
80,esso,32.0,RU,1551438623.0,48.0,55.93,158.7,249.11700000000002,1.08
81,cartagena del chaira,88.0,CO,1551438623.0,95.0,1.33,-74.84,295.692,1.23
82,garissa,0.0,KE,1551438623.0,34.0,-0.46,39.64,310.617,2.53
83,alofi,44.0,NU,1551434400.0,94.0,-19.06,-169.92,298.15,1.0
84,kibala,0.0,TD,1551434400.0,20.0,9.11,18.35,309.15,4.1
85,talcahuano,90.0,CL,1551434400.0,100.0,-36.72,-73.12,285.15,3.1
86,pevek,36.0,RU,1551438624.0,82.0,69.7,170.27,256.967,5.48
88,hovd,40.0,NO,1551438602.0,80.0,63.83,10.7,277.15,5.1
89,codrington,90.0,AU,1551438254.0,83.0,-28.95,153.24,294.15,2.1
90,nicoya,44.0,CR,1551437171.0,93.0,10.15,-85.45,293.15,8.94
92,namibe,76.0,AO,1551438625.0,100.0,-15.19,12.15,298.66700000000003,4.33
93,mar del plata,76.0,AR,1551438626.0,79.0,-46.43,-67.52,286.617,4.08
94,evensk,64.0,RU,1551438626.0,100.0,61.92,159.24,253.49200000000002,1.83
95,atar,0.0,MR,1551438626.0,11.0,20.52,-13.05,297.91700000000003,7.43
96,tuktoyaktuk,0.0,CA,1551438464.0,100.0,69.44,-133.03,256.16700000000003,9.78
97,hearst,0.0,CA,1551438626.0,77.0,49.69,-83.67,259.16700000000003,2.53
98,kraljevo,20.0,RS,1551438000.0,33.0,43.72,20.69,290.15,5.7
99,myitkyina,0.0,MM,1551438627.0,83.0,25.38,97.4,291.717,0.88
100,paragominas,88.0,BR,1551438627.0,98.0,-3.0,-47.35,297.317,1.83
101,wronki,75.0,PL,1551438625.0,95.0,52.71,16.37,278.15,2.6
102,lebu,40.0,ET,1551434400.0,24.0,8.96,38.73,299.15,3.1
103,kuopio,0.0,FI,1551437400.0,57.0,62.89,27.68,267.15,4.6
104,vardo,90.0,US,1551438623.0,100.0,39.62,-77.74,272.59,1.5
105,zambezi,8.0,ZM,1551438630.0,73.0,-13.55,23.12,302.942,1.58
106,atuona,56.0,PF,1551438630.0,100.0,-9.8,-139.03,299.91700000000003,2.58
107,amambai,0.0,BR,1551438630.0,78.0,-23.11,-55.23,296.017,1.98
108,ouallam,0.0,NE,1551438630.0,14.0,14.32,2.08,302.91700000000003,5.48
109,new norfolk,0.0,AU,1551437841.0,82.0,-42.78,147.06,294.26,2.1
110,waingapu,68.0,ID,1551438475.0,99.0,-9.65,120.26,297.91700000000003,0.98
111,torbay,90.0,CA,1551438505.0,78.0,47.66,-52.73,267.15,8.2
112,hervey bay,40.0,AU,1551438612.0,64.0,-25.3,152.85,297.04,4.1
113,tuy hoa,0.0,VN,1551438631.0,88.0,13.08,109.3,297.442,2.68
114,puerto ayora,24.0,EC,1551438632.0,100.0,-0.74,-90.35,299.317,2.53
115,butaritari,92.0,KI,1551438467.0,100.0,3.07,172.79,300.492,6.03
116,sovetskiy,92.0,RU,1551438632.0,97.0,56.76,48.47,270.267,2.28
118,samarai,36.0,PG,1551438632.0,100.0,-10.62,150.67,300.66700000000003,4.23
119,ahipara,64.0,NZ,1551438577.0,100.0,-35.17,173.16,289.82,2.23
120,brownfield,1.0,US,1551438316.0,85.0,33.18,-102.27,274.82,1.5
122,hilo,90.0,US,1551438446.0,72.0,19.71,-155.08,292.15,3.1
123,salalah,40.0,OM,1551437400.0,69.0,17.01,54.1,300.15,6.7
124,yeppoon,92.0,AU,1551436200.0,65.0,-23.13,150.74,298.15,4.6
126,kontagora,68.0,NG,1551438634.0,69.0,10.4,5.47,300.767,4.73
128,avera,90.0,US,1551438630.0,87.0,33.19,-82.53,289.82,1.5
129,uthal,92.0,PK,1551438635.0,38.0,25.81,66.62,295.317,3.43
130,najran,0.0,SA,1551434400.0,20.0,17.54,44.22,307.15,2.6
131,nitra,75.0,SK,1551438616.0,58.0,48.31,18.09,287.04,6.7
133,longyearbyen,40.0,NO,1551437400.0,76.0,78.22,15.63,253.15,3.6
134,matane,5.0,CA,1551438565.0,78.0,48.83,-67.52,262.04,5.1
135,plouzane,90.0,FR,1551438123.0,71.0,48.38,-4.62,285.15,3.6
136,tasiilaq,75.0,GL,1551435600.0,63.0,65.61,-37.64,271.15,22.6
138,urengoy,56.0,RU,1551438637.0,74.0,65.96,78.37,258.367,6.38
139,bonyhad,0.0,HU,1551435300.0,41.0,46.3,18.53,287.15,4.1
140,bayan,0.0,MN,1551438638.0,49.0,47.25,107.54,266.992,2.78
141,saint-donat-de-montcalm,0.0,CA,1551438638.0,51.0,46.32,-74.22,249.667,0.98
142,bethel,90.0,US,1551434160.0,80.0,60.79,-161.76,276.15,4.6
143,kavieng,76.0,PG,1551438638.0,100.0,-2.57,150.8,300.992,1.68
144,comodoro rivadavia,75.0,AR,1551434400.0,82.0,-45.87,-67.48,288.15,2.6
145,kaeo,24.0,NZ,1551438577.0,100.0,-35.1,173.78,290.37,2.33
146,barrow,64.0,AR,1551438467.0,75.0,-38.31,-60.23,292.267,9.18
147,kamaishi,40.0,JP,1551434400.0,72.0,39.28,141.86,276.15,2.6
148,provideniya,64.0,RU,1551438481.0,86.0,64.42,-173.23,269.492,4.38
149,perur,20.0,IN,1551434400.0,27.0,10.98,76.91,310.15,2.6
151,ileza,8.0,RU,1551438641.0,86.0,61.05,43.9,262.517,3.88
152,tautira,20.0,PF,1551438314.0,78.0,-17.73,-149.15,300.15,1.0
153,raudeberg,20.0,NO,1551438304.0,100.0,61.99,5.14,277.15,2.1
154,caceres,68.0,CO,1551438642.0,95.0,5.53,-74.53,291.192,1.08
155,belmonte,12.0,PT,1551438642.0,60.0,40.36,-7.35,289.317,1.88
156,talnakh,76.0,RU,1551438642.0,74.0,69.49,88.39,258.092,7.93
157,souillac,90.0,FR,1551438550.0,66.0,45.6,-0.6,287.04,5.1
158,arroyo,90.0,US,1551438612.0,85.0,41.39,-78.88,270.37,4.1
159,arona,0.0,IT,1551438637.0,58.0,45.76,8.56,288.71,2.6
160,nome,90.0,US,1551438607.0,93.0,30.04,-94.42,283.15,3.1
161,cidreira,8.0,BR,1551438473.0,87.0,-30.17,-50.22,295.867,1.98
162,hasaki,20.0,JP,1551438276.0,86.0,35.73,140.83,278.71,1.0
163,maceio,20.0,BR,1551434400.0,88.0,-9.67,-35.74,299.15,1.0
164,yulara,0.0,AU,1551434400.0,9.0,-25.24,130.99,311.15,2.1
165,dikson,24.0,RU,1551438467.0,70.0,73.51,80.55,252.067,8.63
166,grand-lahou,32.0,CI,1551438644.0,59.0,5.24,-5.0,305.41700000000003,1.83
167,dingle,0.0,PH,1551438468.0,62.0,11.0,122.67,299.91700000000003,6.13
168,mount gambier,0.0,AU,1551434400.0,20.0,-37.83,140.78,304.15,2.1
169,vaini,0.0,IN,1551438480.0,21.0,15.34,74.49,303.41700000000003,2.03
170,san lawrenz,75.0,MT,1551438631.0,67.0,36.06,14.2,290.37,10.8
171,hofn,90.0,IS,1551434400.0,93.0,64.25,-15.21,277.15,3.48
172,hobart,0.0,AU,1551438440.0,82.0,-42.88,147.33,293.71,2.1
174,divnomorskoye,92.0,RU,1551438646.0,97.0,44.5,38.13,279.842,5.68
175,kruisfontein,44.0,ZA,1551438454.0,81.0,-34.0,24.73,292.66700000000003,4.03
176,muskogee,90.0,US,1551438352.0,100.0,35.75,-95.37,272.04,2.6
177,quelimane,75.0,MZ,1551434400.0,79.0,-17.88,36.89,303.15,1.0
178,cam ranh,20.0,VN,1551436200.0,65.0,11.92,109.15,301.15,3.1
179,nepomuceno,92.0,BR,1551438647.0,100.0,-21.23,-45.23,292.242,2.03
180,hermanus,0.0,ZA,1551438124.0,61.0,-34.42,19.24,299.26,3.13
181,erzin,0.0,TR,1551438455.0,33.0,36.95,36.2,288.15,5.1
182,san jose,0.0,PH,1551438446.0,84.0,15.79,120.99,294.867,1.43
183,ikeda,20.0,JP,1551438059.0,57.0,34.82,135.43,285.15,6.2
184,golkoy,0.0,TR,1551437400.0,26.0,40.69,37.62,289.15,8.7
185,sibolga,88.0,ID,1551438650.0,100.0,1.74,98.78,293.992,0.43
186,thompson,75.0,CA,1551434400.0,75.0,55.74,-97.86,246.15,2.6
187,tadine,92.0,NC,1551438650.0,97.0,-21.55,167.88,299.41700000000003,10.53
189,santa maria,20.0,BR,1551434400.0,100.0,-29.69,-53.81,286.15,0.5
190,lompoc,75.0,US,1551438631.0,100.0,34.64,-120.46,283.71,1.33
191,akureyri,75.0,IS,1551434400.0,74.0,65.68,-18.09,275.15,1.5
192,kahului,8.0,US,1551438394.0,87.0,20.89,-156.47,290.37,1.34
193,chabahar,76.0,IR,1551438652.0,93.0,25.29,60.65,296.592,9.93
194,gandevi,0.0,IN,1551438652.0,22.0,20.83,72.99,307.117,2.33
195,oranjemund,0.0,ZA,1551438653.0,85.0,-28.55,16.43,291.41700000000003,10.83
196,touros,75.0,BR,1551434400.0,94.0,-5.2,-35.46,299.15,2.1
197,benguela,20.0,AO,1551438548.0,88.0,-12.58,13.4,301.817,5.23
198,male,88.0,UA,1551438653.0,91.0,50.74,33.7,274.617,7.43
199,linhares,20.0,BR,1551438486.0,74.0,-19.38,-40.06,302.767,4.78
200,tuatapere,8.0,NZ,1551438607.0,81.0,-46.13,167.69,284.82,1.34
201,mokhotlong,0.0,LS,1551438655.0,34.0,-29.29,29.06,295.567,1.38
202,takoradi,24.0,GH,1551438655.0,100.0,4.89,-1.75,299.91700000000003,1.58
203,okhotsk,0.0,RU,1551438655.0,100.0,59.36,143.24,254.167,1.43
204,iqaluit,75.0,CA,1551434400.0,70.0,63.75,-68.52,253.15,8.7
205,avarua,80.0,CK,1551436200.0,88.0,-21.21,-159.78,299.15,1.5
206,praia da vitoria,20.0,PT,1551438087.0,87.0,38.73,-27.07,288.71,6.63
207,alexandria,90.0,US,1551438432.0,100.0,31.31,-92.44,283.15,1.5
208,tilichiki,0.0,RU,1551438657.0,63.0,60.47,166.1,250.517,2.78
209,milledgeville,90.0,US,1551438605.0,100.0,33.08,-83.23,290.15,1.5
211,victor harbor,0.0,AU,1551438632.0,22.0,-35.55,138.62,305.93,2.1
212,tarata,0.0,PE,1551434400.0,77.0,-17.47,-70.03,291.15,0.5
213,lima,0.0,PE,1551438134.0,88.0,-12.06,-77.04,295.93,2.6
214,mackay,90.0,CA,1551435780.0,64.0,53.65,-115.58,254.15,5.7
215,xichang,0.0,CN,1551438658.0,16.0,27.88,102.25,284.742,2.23
216,arambagh,0.0,IN,1551438374.0,65.0,22.88,87.79,295.692,1.08
218,narsaq,75.0,GL,1551433800.0,22.0,60.91,-46.05,280.15,13.4
219,chapais,90.0,CA,1551435600.0,84.0,49.78,-74.86,255.15,2.6
220,arraial do cabo,40.0,BR,1551434400.0,83.0,-22.97,-42.02,299.15,1.0
221,saint-philippe,1.0,CA,1551438341.0,71.0,45.36,-73.48,257.59,1.68
223,la ronge,90.0,CA,1551434400.0,75.0,55.1,-105.3,248.15,2.6
224,tingo maria,80.0,PE,1551438660.0,97.0,-9.29,-76.01,290.092,0.73
225,ledyard,75.0,US,1551438626.0,67.0,41.44,-72.02,271.15,1.5
226,alice springs,0.0,AU,1551436200.0,14.0,-23.7,133.88,306.15,3.6
227,guapiacu,75.0,BR,1551434400.0,88.0,-20.8,-49.22,295.15,1.5
229,aksu,40.0,KZ,1551436200.0,85.0,52.04,76.93,266.15,3.0
231,broken hill,0.0,AU,1551434400.0,17.0,-31.97,141.45,305.15,5.7
232,meulaboh,32.0,ID,1551438365.0,100.0,4.14,96.13,300.217,0.73
233,arlit,0.0,NE,1551438662.0,67.0,18.74,7.39,292.742,3.63
234,camoapa,64.0,NI,1551438662.0,75.0,12.38,-85.51,294.492,4.03
235,thunder bay,75.0,CA,1551438503.0,84.0,48.41,-89.26,259.26,2.6
237,coquimbo,90.0,CL,1551434400.0,93.0,-29.95,-71.34,287.15,1.5
238,kabinda,88.0,CD,1551438662.0,96.0,-6.14,24.49,298.817,2.08
239,saskylakh,0.0,RU,1551438663.0,0.0,71.97,114.09,240.86700000000002,3.18
240,nauta,8.0,PE,1551438663.0,93.0,-4.51,-73.58,297.817,1.83
241,te anau,0.0,NZ,1551438470.0,90.0,-45.41,167.72,275.467,0.98
242,chokurdakh,0.0,RU,1551438469.0,0.0,70.62,147.9,240.267,1.18
244,mahebourg,75.0,MU,1551438240.0,79.0,-20.41,57.7,303.15,5.7
245,hirara,75.0,JP,1551434400.0,88.0,24.8,125.28,295.15,3.6
246,medina,20.0,SA,1551438000.0,26.0,24.47,39.61,294.15,7.2
247,mirnyy,92.0,RU,1551438664.0,89.0,56.57,36.46,270.617,8.43
248,komsomolskiy,76.0,RU,1551438665.0,66.0,67.55,63.78,256.342,4.23
249,maniwaki,0.0,CA,1551438665.0,51.0,46.38,-75.98,253.017,2.33
250,batagay,44.0,RU,1551438665.0,0.0,67.65,134.64,239.36700000000002,1.13
251,lichinga,56.0,MZ,1551438667.0,72.0,-13.3,35.25,299.867,1.68
252,san policarpo,32.0,PH,1551438667.0,93.0,12.18,125.51,297.942,5.03
254,saint-jean-de-maurienne,90.0,FR,1551438304.0,81.0,45.28,6.35,285.37,1.63
257,zhigansk,56.0,RU,1551438668.0,69.0,66.77,123.37,252.317,1.18
258,nieves,0.0,MX,1551438668.0,67.0,24.0,-103.02,278.517,1.13
259,kidal,0.0,ML,1551438668.0,20.0,18.44,1.41,296.842,5.63
260,lorengau,0.0,PG,1551438668.0,97.0,-2.02,147.27,301.967,2.43
261,ilulissat,20.0,GL,1551433800.0,78.0,69.22,-51.1,265.15,1.5
262,imbituba,0.0,BR,1551434400.0,88.0,-28.24,-48.67,295.15,1.5
263,iguatemi,0.0,BR,1551438669.0,78.0,-23.67,-54.56,296.267,2.03
264,cayenne,92.0,GF,1551436200.0,94.0,4.94,-52.33,296.15,4.03
265,kalmunai,0.0,LK,1551438670.0,78.0,7.42,81.82,300.867,2.78
266,caravelas,36.0,BR,1551438670.0,100.0,-17.73,-39.27,301.617,7.23
267,srednekolymsk,36.0,RU,1551438670.0,71.0,67.46,153.71,246.342,1.23
268,bakchar,44.0,RU,1551438671.0,76.0,57.02,82.07,265.992,2.58
269,dryden,75.0,CA,1551435180.0,84.0,49.79,-92.84,256.15,2.6
270,lavrentiya,92.0,RU,1551438671.0,91.0,65.58,-170.99,271.692,3.93
271,veles,0.0,MK,1551438000.0,27.0,41.72,21.78,290.15,1.33
273,victoria,75.0,BN,1551436200.0,78.0,5.28,115.24,300.15,3.6
274,ketchikan,1.0,US,1551434160.0,86.0,55.34,-131.65,274.15,2.73
275,lasa,40.0,CY,1551438049.0,59.0,34.92,32.53,289.15,6.2
276,kushima,75.0,JP,1551434400.0,62.0,31.5,131.29,287.15,2.1
277,port hueneme,90.0,US,1551438615.0,87.0,34.15,-119.2,287.04,2.1
278,margate,0.0,AU,1551438440.0,82.0,-43.03,147.26,293.71,2.1
279,saint george,0.0,GR,1551438206.0,39.0,39.45,22.34,291.15,3.6
280,ostersund,75.0,SE,1551438096.0,80.0,63.18,14.64,274.82,4.1
281,hualmay,56.0,PE,1551438483.0,95.0,-11.1,-77.61,292.492,1.68
283,muroto,0.0,JP,1551434400.0,35.0,33.37,134.14,286.15,4.6
284,la rioja,0.0,AR,1551438417.0,75.0,-29.41,-66.86,294.342,3.13
286,port lincoln,0.0,AU,1551438674.0,69.0,-34.72,135.86,298.317,3.23
287,moron,80.0,VE,1551438674.0,93.0,10.49,-68.2,293.16700000000003,0.93
289,urucara,36.0,BR,1551438675.0,88.0,-2.54,-57.76,298.492,1.38
290,dicabisagan,0.0,PH,1551438675.0,100.0,17.08,122.42,294.342,2.48
291,japura,32.0,ID,1551438675.0,97.0,-0.42,102.29,296.192,0.78
292,bell ville,0.0,AR,1551438675.0,76.0,-32.63,-62.69,295.567,5.18
293,lagoa,0.0,PT,1551438437.0,67.0,37.14,-8.45,290.93,4.1
294,saint-augustin,90.0,FR,1551438370.0,58.0,44.83,-0.61,287.59,3.6
295,sao lourenco do sul,20.0,BR,1551435300.0,93.0,-31.37,-51.98,290.15,2.53
298,aflao,75.0,TG,1551434400.0,94.0,6.12,1.19,297.15,3.6
299,neuquen,0.0,AR,1551434400.0,55.0,-38.95,-68.06,290.15,1.0
300,port elizabeth,90.0,US,1551438460.0,100.0,39.31,-74.98,274.26,4.6
301,antalaha,80.0,MG,1551438678.0,95.0,-14.9,50.28,300.442,2.33
302,pollachi,20.0,IN,1551434400.0,27.0,10.66,77.01,310.15,2.6
303,chuy,0.0,UY,1551438679.0,79.0,-33.69,-53.46,295.617,1.53
305,makat,36.0,KZ,1551438679.0,100.0,47.65,53.35,275.767,3.18
306,manta,0.0,RO,1551438679.0,59.0,45.1,24.1,286.367,3.58
307,port blair,0.0,IN,1551438680.0,100.0,11.67,92.75,301.592,4.48
308,egvekinot,68.0,RU,1551438680.0,82.0,66.32,-179.17,267.617,6.98
309,taksimo,24.0,RU,1551438680.0,84.0,56.36,114.84,260.767,0.73
311,selma,1.0,US,1551438659.0,100.0,36.57,-119.61,284.15,0.18
312,mangrol,0.0,IN,1551438681.0,31.0,25.33,76.51,296.867,1.68
313,deputatskiy,20.0,RU,1551438681.0,0.0,69.3,139.9,237.567,1.18
314,jiwani,44.0,PK,1551438681.0,72.0,25.05,61.74,296.717,7.73
315,betsiamites,1.0,CA,1551434400.0,59.0,48.94,-68.65,261.15,1.5
316,beringovskiy,20.0,RU,1551438682.0,82.0,63.05,179.32,268.91700000000003,10.33
317,udachnyy,56.0,RU,1551438682.0,63.0,66.42,112.4,256.867,0.98
318,guara,5.0,CU,1551437700.0,100.0,22.81,-82.2,288.15,0.5
319,pacific grove,1.0,US,1551438590.0,81.0,36.62,-121.92,283.71,1.5
320,khatanga,8.0,RU,1551438683.0,60.0,71.98,102.47,251.267,5.28
321,viedma,92.0,AR,1551438683.0,72.0,-40.81,-62.99,291.592,8.08
322,ucluelet,0.0,CA,1551438677.0,95.0,48.94,-125.55,271.48,1.08
323,padang,20.0,ID,1551438684.0,100.0,-0.92,100.36,300.517,0.73
324,isabela,0.0,PH,1551438684.0,66.0,10.2,122.99,299.342,2.98
327,carnarvon,0.0,ZA,1551438684.0,11.0,-30.97,22.13,304.067,4.78
329,nouakchott,0.0,MR,1551436200.0,12.0,18.08,-15.98,294.15,10.3
330,mata,20.0,CU,1551437460.0,87.0,22.63,-79.93,289.15,1.0
331,porto novo,75.0,BR,1551434400.0,100.0,-23.68,-45.44,293.15,0.5
332,inhambane,75.0,MZ,1551434400.0,70.0,-23.87,35.38,303.15,1.5
333,linjiang,0.0,CN,1551438686.0,71.0,41.81,126.91,265.992,2.13
334,montes altos,92.0,BR,1551438686.0,100.0,-5.83,-47.07,294.592,2.43
335,norman wells,5.0,CA,1551434400.0,76.0,65.28,-126.83,250.15,5.1
336,minab,90.0,IR,1551438000.0,77.0,27.15,57.07,293.15,1.0
337,winchester,40.0,GB,1551438567.0,76.0,51.06,-1.31,284.82,2.1
338,sawakin,0.0,SD,1551438687.0,48.0,19.1,37.33,298.717,4.13
339,sisimiut,36.0,GL,1551438636.0,58.0,66.94,-53.67,255.86700000000002,0.63
340,sao jose da coroa grande,48.0,BR,1551438687.0,85.0,-8.9,-35.15,301.092,2.68
341,saint-jean-de-braye,90.0,FR,1551438678.0,81.0,47.92,1.97,283.71,5.7
342,wilmington,90.0,US,1551438548.0,92.0,39.75,-75.55,271.48,4.6
343,mareeba,75.0,AU,1551438637.0,83.0,-16.99,145.42,298.15,2.1
344,buhe,92.0,CN,1551438668.0,84.0,30.29,112.23,281.48,3.43
345,mbandaka,88.0,CD,1551438689.0,100.0,0.05,18.26,295.517,1.38
346,caconda,36.0,AO,1551438689.0,79.0,-13.73,15.06,295.992,4.13
347,pundaguitan,56.0,PH,1551438689.0,93.0,6.37,126.17,301.067,2.93
348,beyneu,24.0,KZ,1551438689.0,80.0,45.32,55.19,276.442,4.53
349,bamiantong,0.0,CN,1551438689.0,43.0,44.93,130.53,270.592,2.68
350,regina,90.0,CA,1551438651.0,84.0,50.45,-104.62,260.15,4.1
351,ponta do sol,92.0,BR,1551438691.0,98.0,-20.63,-46.0,292.717,1.38
352,anaconda,1.0,US,1551438142.0,76.0,46.13,-112.94,259.26,1.88
353,manicore,88.0,BR,1551438561.0,89.0,-5.81,-61.3,297.217,1.33
354,saryozek,24.0,KZ,1551438692.0,91.0,44.36,77.98,276.16700000000003,1.33
355,danilovka,88.0,RU,1551438692.0,96.0,50.35,44.12,273.842,4.53
358,altamira,80.0,BR,1551438692.0,98.0,-3.2,-52.21,297.492,1.53
359,coihaique,0.0,CL,1551434400.0,81.0,-45.58,-72.07,284.15,2.1
360,astara,40.0,AZ,1551438000.0,69.0,38.42,48.87,284.15,4.1
362,koforidua,75.0,GH,1551434400.0,74.0,6.11,-0.27,302.15,3.6
363,murgab,0.0,TM,1551434400.0,35.0,37.5,61.97,294.15,6.2
364,acapulco,5.0,MX,1551433200.0,88.0,16.86,-99.88,297.15,1.23
365,amahai,76.0,ID,1551437557.0,88.0,-3.31,129.0,300.93,0.45
366,mugumu,24.0,TZ,1551438694.0,54.0,-1.84,34.67,299.767,1.88
367,rawson,90.0,AR,1551436140.0,93.0,-43.3,-65.11,287.15,4.1
368,coffs harbour,90.0,AU,1551438500.0,69.0,-30.3,153.13,297.15,4.6
369,avenal,90.0,US,1551438465.0,87.0,36.0,-120.13,283.71,4.6
370,piacabucu,32.0,BR,1551438695.0,62.0,-10.41,-36.43,303.942,4.83
371,goderich,0.0,CA,1551438518.0,87.0,43.74,-81.71,261.48,2.03
372,kirakira,24.0,SB,1551438696.0,98.0,-10.46,161.92,301.91700000000003,0.43
373,conceicao do araguaia,92.0,BR,1551438462.0,100.0,-8.26,-49.26,296.092,1.38
374,mawlaik,20.0,MM,1551438696.0,67.0,23.63,94.42,294.592,0.88
375,aswan,48.0,EG,1551438696.0,35.0,24.09,32.9,292.717,6.03
376,lubango,75.0,AO,1551434400.0,50.0,-14.92,13.49,297.15,4.1
377,buala,56.0,SB,1551438697.0,82.0,-8.15,159.59,301.692,1.53
380,alfredo chaves,0.0,BR,1551434400.0,78.0,-20.64,-40.75,301.15,2.6
381,marsh harbour,32.0,BS,1551438698.0,100.0,26.54,-77.06,295.342,2.68
382,rio grande,20.0,BR,1551435300.0,93.0,-32.03,-52.1,290.15,4.03
383,sambava,88.0,MG,1551438698.0,100.0,-14.27,50.17,300.492,2.23
384,nanortalik,56.0,GL,1551438698.0,95.0,60.14,-45.24,273.41700000000003,12.13
385,eydhafushi,0.0,MV,1551438698.0,100.0,5.1,73.07,301.317,4.53
386,abidjan,40.0,CI,1551436200.0,74.0,5.32,-4.02,302.15,2.1
387,christchurch,80.0,NZ,1551438318.0,81.0,-43.53,172.64,284.82,1.0
388,amapa,20.0,HN,1551438635.0,88.0,15.09,-87.97,296.15,1.5
389,sibenik,80.0,HR,1551438699.0,40.0,45.81,17.18,288.117,1.53
390,constitucion,5.0,MX,1551438615.0,56.0,23.99,-104.67,285.37,1.5
391,port-gentil,40.0,GA,1551434400.0,79.0,-0.72,8.78,302.15,5.1
392,klaksvik,88.0,FO,1551437400.0,87.0,62.23,-6.59,279.15,3.6
393,amarante do maranhao,92.0,BR,1551438700.0,100.0,-5.57,-46.74,294.992,1.63
394,pontes e lacerda,24.0,BR,1551438700.0,95.0,-15.23,-59.33,296.842,1.58
395,terbuny,88.0,RU,1551438701.0,94.0,52.15,38.28,273.717,3.83
396,boa vista,0.0,BR,1551434400.0,64.0,2.82,-60.67,297.15,4.1
398,sept-iles,5.0,CA,1551438507.0,49.0,50.2,-66.38,257.59,3.6
399,cascais,20.0,PT,1551438297.0,72.0,38.7,-9.42,289.82,8.2
400,malartic,90.0,CA,1551437640.0,92.0,48.14,-78.13,260.15,4.6
401,richards bay,20.0,ZA,1551438704.0,71.0,-28.77,32.06,300.567,2.43
402,kalabo,8.0,ZM,1551438704.0,57.0,-15.0,22.67,304.692,1.88
403,faya,20.0,SA,1551434400.0,53.0,18.39,42.45,295.15,7.7
404,diamantino,64.0,BR,1551438705.0,94.0,-14.4,-56.44,296.342,1.83
405,saint anthony,90.0,US,1551438630.0,85.0,43.97,-111.68,271.15,2.6
407,jalu,0.0,LY,1551438481.0,46.0,29.03,21.55,291.942,2.98
408,huarmey,88.0,PE,1551438705.0,79.0,-10.07,-78.15,292.817,1.53
409,kangaba,0.0,ML,1551438706.0,25.0,11.94,-8.41,298.967,6.73
410,husavik,8.0,CA,1551438605.0,87.0,50.56,-96.99,249.26,0.88
412,xining,88.0,CN,1551438706.0,51.0,36.62,101.77,273.16700000000003,1.23
413,cap malheureux,75.0,MU,1551438539.0,79.0,-19.98,57.61,303.15,5.7
414,ballina,0.0,IE,1551438490.0,81.0,54.11,-9.15,283.15,4.6
415,mukhen,80.0,RU,1551438707.0,56.0,48.19,136.14,268.967,2.88
416,svetlogorsk,90.0,RU,1551436200.0,86.0,53.14,59.15,271.15,9.0
417,kokopo,24.0,PG,1551438707.0,100.0,-4.34,152.27,300.317,2.08
418,oussouye,0.0,SN,1551434400.0,36.0,12.49,-16.54,298.15,9.3
419,merauke,36.0,ID,1551438708.0,89.0,-8.49,140.4,300.617,3.33
420,kysyl-syr,44.0,RU,1551438709.0,70.0,63.9,122.77,255.942,2.03
422,mayo,5.0,CA,1551434400.0,75.0,63.59,-135.9,247.15,1.13
423,provost,48.0,CA,1551438709.0,71.0,52.35,-110.26,255.11700000000002,4.23
424,bathsheba,20.0,BB,1551434400.0,69.0,13.22,-59.52,298.15,8.2
425,maragogi,48.0,BR,1551438591.0,85.0,-9.01,-35.22,301.092,2.68
426,glendive,90.0,US,1551436500.0,85.0,47.11,-104.71,262.15,2.6
427,kaitangata,0.0,NZ,1551438710.0,85.0,-46.28,169.85,283.717,5.28
428,maralal,0.0,KE,1551438710.0,56.0,1.1,36.7,299.867,1.33
430,katsuura,75.0,JP,1551438000.0,65.0,33.93,134.5,284.15,3.6
431,madinat sittah uktubar,75.0,EG,1551438300.0,39.0,29.82,31.05,290.93,6.2
433,bubaque,0.0,GW,1551438711.0,80.0,11.28,-15.83,300.41700000000003,10.63
434,thanh hoa,40.0,VN,1551436200.0,66.0,10.21,106.33,302.15,4.6
435,troitsko-pechorsk,80.0,RU,1551438712.0,66.0,62.71,56.19,261.842,1.58
436,dinhata,20.0,IN,1551438712.0,66.0,26.13,89.46,292.342,2.43
438,fukue,20.0,JP,1551438499.0,61.0,35.03,136.69,285.37,11.3
439,aitape,64.0,PG,1551438713.0,96.0,-3.15,142.36,299.91700000000003,2.28
440,puerto escondido,0.0,MX,1551438713.0,100.0,15.86,-97.07,300.367,1.98
441,kemise,24.0,ET,1551438713.0,34.0,10.72,39.87,297.942,1.38
442,cuamba,36.0,MZ,1551438713.0,61.0,-14.8,36.54,303.492,1.98
443,paamiut,44.0,GL,1551438714.0,76.0,61.99,-49.67,274.192,2.73
445,kabanjahe,40.0,ID,1551432600.0,74.0,3.1,98.49,303.15,6.2
446,dubbo,48.0,AU,1551436200.0,30.0,-32.25,148.6,300.15,5.1
447,santa rosa,8.0,AR,1551438717.0,81.0,-36.62,-64.29,292.91700000000003,2.78
448,marienburg,75.0,DE,1551438690.0,93.0,52.12,9.98,283.15,4.1
449,proletariy,32.0,RU,1551438718.0,69.0,58.43,31.7,268.067,6.03
450,alirajpur,0.0,IN,1551438718.0,28.0,22.3,74.35,301.092,3.63
451,pedro juan caballero,0.0,PY,1551438719.0,75.0,-22.55,-55.74,296.217,1.83
452,saint-francois,90.0,FR,1551438122.0,71.0,46.42,3.91,283.15,6.7
453,labuhan,88.0,ID,1551438720.0,85.0,-2.54,115.51,297.367,0.73
454,namatanai,32.0,PG,1551438720.0,100.0,-3.66,152.44,301.16700000000003,4.03
455,xuddur,0.0,SO,1551438720.0,13.0,4.12,43.89,311.66700000000003,3.83
456,iquitos,20.0,PE,1551434400.0,94.0,-3.75,-73.25,297.15,1.5
459,kondinskoye,88.0,RU,1551438721.0,83.0,59.65,67.41,267.567,4.48
460,vostok,76.0,RU,1551438721.0,62.0,46.45,135.83,268.66700000000003,2.68
461,gaoua,0.0,BF,1551438722.0,20.0,10.33,-3.18,303.242,4.58
462,harper,90.0,US,1551438620.0,93.0,30.3,-99.24,284.82,1.5
464,adrar,0.0,DZ,1551434400.0,38.0,27.87,-0.29,288.15,3.6
465,loten,0.0,NO,1551438602.0,63.0,60.82,11.34,275.93,1.34
466,lod,75.0,IL,1551438611.0,54.0,31.94,34.88,290.37,6.2
467,palembang,75.0,ID,1551436200.0,94.0,-2.99,104.76,299.15,2.6
468,rosarito,68.0,CO,1551438723.0,99.0,4.91,-75.23,289.517,0.63
469,oktyabrskoye,40.0,RU,1551438620.0,79.0,56.73,85.44,270.93,3.0
470,esperance,20.0,TT,1551438045.0,88.0,10.24,-61.45,295.15,2.88
472,brigantine,90.0,US,1551438723.0,100.0,39.41,-74.36,274.26,1.5
473,naze,40.0,NG,1551434400.0,83.0,5.43,7.07,299.15,1.0
474,marawi,44.0,PH,1551438051.0,86.0,8.0,124.29,298.71,2.68
475,hamilton,75.0,BM,1551438322.0,88.0,32.3,-64.78,292.15,2.1
476,berlevag,40.0,NO,1551437400.0,85.0,70.86,29.09,267.15,1.0
477,taixing,92.0,CN,1551438713.0,61.0,32.17,120.02,282.04,4.03
478,longhua,64.0,CN,1551438726.0,73.0,29.21,106.21,285.192,2.53
479,gat,0.0,SN,1551436200.0,11.0,14.69,-16.54,296.15,9.8
480,sosva,92.0,RU,1551438726.0,77.0,59.17,61.86,271.117,2.98
481,laguna,0.0,MX,1551438727.0,70.0,27.52,-110.01,285.66700000000003,0.98
482,guerrero negro,0.0,MX,1551438727.0,92.0,27.97,-114.04,283.66700000000003,3.63
485,bilibino,88.0,RU,1551438727.0,58.0,68.06,166.44,253.667,2.13
486,kuytun,36.0,RU,1551438728.0,78.0,54.34,101.51,269.967,2.08
487,lake havasu city,1.0,US,1551438383.0,55.0,34.47,-114.34,292.04,4.1
488,kibaya,75.0,RW,1551438300.0,60.0,-2.2,30.56,296.15,6.7
489,kutum,0.0,SD,1551438728.0,24.0,14.2,24.66,300.017,4.68
490,shimoda,20.0,JP,1551438611.0,87.0,34.7,138.93,286.15,2.1
491,sakaiminato,20.0,JP,1551438000.0,56.0,35.55,133.23,280.15,1.5
492,qasigiannguit,20.0,GL,1551433800.0,78.0,68.82,-51.19,265.15,1.5
493,nizwa,76.0,OM,1551438729.0,44.0,22.93,57.53,300.267,4.28
495,sokolo,0.0,ML,1551438730.0,28.0,14.74,-6.12,297.617,8.13
496,mikkeli,0.0,FI,1551438604.0,53.0,61.69,27.27,268.15,3.1
497,aykhal,56.0,RU,1551438730.0,60.0,65.95,111.51,257.16700000000003,1.08
498,guanica,24.0,PR,1551438627.0,81.0,17.97,-66.91,297.04,3.13
499,wasilla,1.0,US,1551438611.0,84.0,61.58,-149.44,264.82,2.03
500,abonnema,40.0,NG,1551434400.0,83.0,4.71,6.79,299.15,1.0
501,dutse,36.0,NG,1551438732.0,42.0,11.76,9.34,307.66700000000003,1.88
502,ishigaki,75.0,JP,1551438000.0,83.0,24.34,124.16,296.15,5.1
503,tabou,32.0,CI,1551438734.0,93.0,4.42,-7.36,302.242,0.78
504,eldorado,0.0,MX,1551438617.0,94.0,24.32,-107.36,288.15,0.98
505,nalut,0.0,LY,1551438734.0,81.0,31.86,10.98,287.692,1.83
506,fonte boa,36.0,BR,1551438735.0,89.0,-2.51,-66.09,298.992,1.68
507,sladkovo,80.0,RU,1551438587.0,90.0,55.53,70.34,265.817,5.93
508,mumford,32.0,GH,1551438735.0,85.0,5.26,-0.76,302.692,3.38
509,alekseyevsk,12.0,RU,1551438735.0,73.0,57.84,108.35,265.16700000000003,1.53
511,noboribetsu,75.0,JP,1551438015.0,59.0,42.42,141.1,275.15,3.6
512,nucet,0.0,RO,1551438736.0,62.0,46.49,22.56,281.442,2.28
513,abu samrah,0.0,SY,1551438736.0,68.0,35.3,37.18,285.217,8.38
514,zhuhai,0.0,CN,1551434400.0,24.0,40.71,112.04,280.15,2.0
515,riohacha,20.0,CO,1551438737.0,93.0,11.54,-72.91,297.342,6.13
516,pisco,75.0,PE,1551434400.0,83.0,-13.71,-76.2,295.15,1.5
517,west plains,90.0,US,1551438563.0,86.0,36.73,-91.85,271.48,1.43
518,half moon bay,1.0,US,1551438728.0,75.0,37.46,-122.43,281.48,1.53
520,qaqortoq,75.0,GL,1551433800.0,22.0,60.72,-46.03,280.15,13.4
521,juneau,20.0,US,1551438697.0,92.0,58.3,-134.42,272.59,2.08
522,ambanja,68.0,MG,1551438738.0,89.0,-13.68,48.45,299.41700000000003,1.33
523,anadyr,90.0,RU,1551438319.0,85.0,64.73,177.51,268.15,17.0
524,airai,56.0,TL,1551438472.0,94.0,-8.93,125.41,295.217,0.63
525,chengde,8.0,CN,1551438739.0,69.0,40.97,117.93,271.817,1.13
526,haapiti,20.0,PF,1551438314.0,78.0,-17.57,-149.87,300.15,1.0
527,ozernovskiy,12.0,RU,1551438739.0,87.0,51.5,156.52,263.367,1.33
528,tonantins,36.0,BR,1551438740.0,94.0,-2.86,-67.77,297.517,1.68
529,sidi ali,0.0,DZ,1551438740.0,70.0,36.1,0.42,291.267,1.63
530,fairbanks,1.0,US,1551438309.0,83.0,64.84,-147.72,255.93,1.13
532,mandurah,0.0,AU,1551438702.0,52.0,-32.55,115.7,292.15,6.7
533,vianopolis,44.0,BR,1551438741.0,100.0,-16.74,-48.52,295.492,2.08
534,tymovskoye,68.0,RU,1551438741.0,81.0,50.85,142.66,265.467,2.28
535,malinovoye ozero,0.0,RU,1551438741.0,77.0,51.68,79.77,269.66700000000003,2.33
536,champerico,8.0,MX,1551438742.0,92.0,16.38,-93.6,288.467,0.93
537,znamenskoye,36.0,RU,1551438742.0,84.0,57.13,73.82,263.867,4.73
538,oksbol,8.0,DK,1551438691.0,81.0,55.63,8.29,279.15,4.6
540,mudanjiang,0.0,CN,1551438722.0,43.0,44.58,129.6,268.342,2.28
542,taoudenni,0.0,ML,1551438681.0,29.0,22.68,-3.98,294.842,6.33
543,itarema,76.0,BR,1551438724.0,100.0,-2.92,-39.92,300.092,2.28
544,nuuk,75.0,GL,1551433800.0,36.0,64.17,-51.74,280.15,9.3
545,porangatu,68.0,BR,1551438743.0,100.0,-13.44,-49.14,295.91700000000003,1.98
546,bowen,90.0,AU,1551438622.0,78.0,-20.01,148.25,298.15,4.1
547,illapel,88.0,CL,1551438672.0,98.0,-31.63,-71.17,288.367,1.33
548,sumbe,40.0,AO,1551434400.0,92.0,-11.2,13.84,303.15,5.1
549,iquique,0.0,CL,1551434400.0,88.0,-20.22,-70.14,292.15,1.13
550,sao pedro da cadeira,20.0,PT,1551438721.0,72.0,39.07,-9.37,289.82,5.7
551,sur,0.0,OM,1551438673.0,77.0,22.57,59.53,299.267,8.38
552,trindade,75.0,BR,1551438000.0,88.0,-16.66,-49.49,295.15,1.0
553,mount isa,56.0,AU,1551436200.0,39.0,-20.73,139.49,302.15,3.6
554,navirai,0.0,BR,1551438746.0,74.0,-23.07,-54.19,296.992,1.78
555,kavaratti,0.0,IN,1551438747.0,100.0,10.57,72.64,301.092,4.58
556,coihueco,0.0,CL,1551438365.0,100.0,-36.63,-71.83,285.93,2.6
557,asti,0.0,IT,1551438729.0,41.0,44.9,8.21,293.71,2.1
558,westport,92.0,IE,1551438723.0,88.0,53.8,-9.52,283.15,0.45
559,iracoubo,80.0,GF,1551438748.0,81.0,5.48,-53.21,298.842,2.53
560,lashio,0.0,MM,1551438748.0,80.0,22.93,97.75,292.117,0.03
561,omboue,56.0,GA,1551438748.0,100.0,-1.57,9.26,299.442,2.93
562,payo,64.0,ID,1551438749.0,90.0,-3.75,103.64,298.41700000000003,1.78
563,santa cruz del sur,32.0,CU,1551438749.0,95.0,20.71,-78.0,294.367,3.63
565,mabaruma,92.0,GY,1551438464.0,90.0,8.2,-59.78,297.192,2.48
566,san quintin,0.0,PH,1551438749.0,77.0,17.54,120.52,294.41700000000003,0.53
567,zlynka,90.0,RU,1551436200.0,86.0,52.43,31.74,274.15,9.0
569,fare,92.0,PF,1551438750.0,100.0,-16.7,-151.02,301.067,3.18
571,ngunguru,0.0,NZ,1551438492.0,83.0,-35.62,174.5,290.37,5.63
572,el real de santa maria,44.0,PA,1551438751.0,100.0,8.11,-77.73,296.91700000000003,2.23
573,mosquera,40.0,CO,1551434400.0,87.0,4.71,-74.23,284.15,1.0
575,rock springs,90.0,US,1551436620.0,92.0,41.59,-109.2,271.15,5.1
576,smithers,1.0,CA,1551434400.0,85.0,54.78,-127.17,265.15,1.0
577,bobrovytsya,90.0,UA,1551438237.0,69.0,50.75,31.38,276.15,7.0
578,sayan,0.0,YE,1551438752.0,53.0,15.88,43.46,303.967,3.33
579,vila franca do campo,20.0,PT,1551438734.0,87.0,37.72,-25.43,289.15,2.6
580,jiblah,0.0,YE,1551438752.0,25.0,13.92,44.15,302.267,2.13
581,tacuarembo,0.0,UY,1551438753.0,79.0,-31.73,-55.98,294.91700000000003,2.03
582,shanghai,92.0,CN,1551438619.0,76.0,31.23,121.49,282.15,3.0
583,san matias,75.0,HN,1551438000.0,87.0,13.97,-86.63,289.15,3.1
584,missoula,90.0,US,1551438254.0,91.0,46.87,-114.0,257.04,2.1
585,edwardsville,90.0,US,1551438436.0,74.0,38.81,-89.95,272.15,2.1
586,tanabe,20.0,JP,1551434400.0,62.0,33.73,135.39,284.15,5.1
587,fomboni,36.0,KM,1551438754.0,100.0,-12.28,43.74,301.817,2.78
588,kedrovyy,40.0,RU,1551436200.0,74.0,56.17,91.82,275.15,3.0
590,tura,0.0,IN,1551438754.0,78.0,25.52,90.21,290.192,1.53
591,teresina,40.0,BR,1551434400.0,88.0,-5.09,-42.81,298.15,1.63
592,ghanzi,8.0,BW,1551438755.0,28.0,-21.7,21.65,309.217,2.53
593,soto la marina,68.0,MX,1551438755.0,96.0,23.77,-98.21,294.367,1.58
594,riyadh,0.0,SA,1551434400.0,25.0,24.63,46.72,292.15,7.7
595,bloemfontein,0.0,ZA,1551434400.0,25.0,-29.12,26.22,303.15,1.5
596,havelock,90.0,US,1551438747.0,87.0,34.88,-76.9,282.59,4.1
597,ulladulla,40.0,AU,1551438009.0,78.0,-35.36,150.48,296.15,4.1
598,baykit,68.0,RU,1551438756.0,81.0,61.68,96.39,263.742,1.18
599,whitehorse,20.0,CA,1551438456.0,84.0,60.72,-135.06,264.26,2.6
600,kuliyapitiya,20.0,LK,1551435000.0,66.0,7.47,80.04,304.15,2.6
601,alipur chatha,75.0,PK,1551438000.0,58.0,32.27,73.82,288.15,1.5
603,isangel,80.0,VU,1551438758.0,100.0,-19.55,169.27,300.742,10.98
604,barcelos,75.0,PT,1551438409.0,93.0,41.53,-8.62,287.59,3.1
605,kaniama,56.0,CD,1551438759.0,80.0,-7.57,24.18,298.66700000000003,1.53
606,manggar,88.0,ID,1551438759.0,92.0,-2.88,108.27,300.16700000000003,2.98
607,oistins,20.0,BB,1551434400.0,69.0,13.07,-59.53,298.15,8.2
608,nuevo progreso,90.0,US,1551438702.0,100.0,26.05,-97.95,291.48,3.1
609,omagari,75.0,JP,1551438000.0,80.0,39.45,140.48,277.15,3.1
610,sterling,90.0,US,1551438734.0,91.0,39.0,-77.4,273.71,2.1
611,mweka,44.0,CD,1551438760.0,74.0,-4.85,21.56,302.317,1.53
612,cabo san lucas,0.0,MX,1551438073.0,50.0,22.89,-109.91,290.37,1.34
613,batemans bay,20.0,AU,1551438676.0,88.0,-35.71,150.18,295.93,2.24
614,san vicente,0.0,SV,1551437400.0,83.0,13.64,-88.78,294.15,1.0
615,tunoshna,90.0,RU,1551436200.0,80.0,57.55,40.13,272.15,5.0
616,stroitel,92.0,RU,1551438763.0,96.0,52.65,41.45,273.767,3.43
618,mtambile,32.0,TZ,1551438763.0,97.0,-5.38,39.7,302.567,3.58
619,bandarbeyla,0.0,SO,1551438763.0,100.0,9.49,50.81,298.317,5.93
620,seoul,40.0,KR,1551438000.0,45.0,37.57,126.98,282.15,1.0
621,ancud,90.0,CL,1551434400.0,93.0,-41.87,-73.83,284.15,2.1
622,lata,44.0,IN,1551438764.0,78.0,30.78,78.62,279.592,0.73
623,bima,32.0,ID,1551438764.0,93.0,-8.45,118.73,299.242,0.98
624,kalino,90.0,PL,1551438744.0,80.0,51.66,19.56,278.15,3.1
625,riverton,1.0,US,1551438080.0,40.0,43.02,-108.38,274.15,4.6
628,verkhnyaya toyma,12.0,RU,1551438765.0,77.0,62.24,45.0,263.992,2.23
629,shaki,24.0,NG,1551438765.0,90.0,7.9,4.77,300.217,2.03
630,conceicao da barra,76.0,BR,1551438475.0,91.0,-18.59,-39.73,300.867,4.58
631,altay,24.0,CN,1551438766.0,85.0,47.83,88.13,266.817,0.88
632,bonga,36.0,ET,1551438766.0,79.0,7.26,36.25,294.41700000000003,0.43
633,vila,0.0,IT,1551438765.0,58.0,45.18,8.4,292.04,2.6
634,roald,75.0,NO,1551438604.0,100.0,62.58,6.12,275.37,3.1
635,broome,75.0,GB,1551438756.0,75.0,52.47,1.45,282.04,2.1
636,bonthe,0.0,SL,1551438767.0,36.0,7.53,-12.5,305.842,2.48
639,tomatlan,92.0,MX,1551438768.0,95.0,19.93,-105.25,292.91700000000003,0.73
640,monroe,1.0,US,1551438756.0,92.0,41.91,-83.4,267.59,1.33
641,grand gaube,75.0,MU,1551438539.0,79.0,-20.01,57.66,303.15,5.7
642,konosha,64.0,RU,1551438769.0,85.0,60.97,40.26,264.217,3.58
643,matamoros,90.0,US,1551438509.0,100.0,25.87,-97.51,291.48,3.1
644,antofagasta,20.0,CL,1551438000.0,82.0,-23.65,-70.4,292.15,0.5
